{
  "restaurants": [
    {
      "id": "1",
      "name": "Aga's Restaurant",
      "address": "6815 Hillcroft St Houston TX 77081",
      "cuisine": "Andhra/Telugu",
      "rating": 4.3,
      "priceRange": "$$",
      "openingHours": "11:30",
      "closingHours": "22:30",
      "latitude": 29.860400000000002,
      "longitude": -95.3698,
      "phone": "(713) 981-7717",
      "description": "Family Style Authentic Andhra Cuisine\r • Vegetarian options available"
    },
    {
      "id": "2",
      "name": "Savoy Restaurant",
      "address": "12427 Bissonnet St Houston TX 77099",
      "cuisine": "Tamil/South Indian",
      "rating": 4.2,
      "priceRange": "$$",
      "openingHours": "11:00",
      "closingHours": "22:00",
      "latitude": 29.855505651629517,
      "longitude": -95.3388983005625,
      "phone": "(281) 879-9400",
      "description": "Traditional Tamil Cuisine Vegetarian Friendly\r • Vegetarian options available"
    },
    {
      "id": "3",
      "name": "Pondicheri",
      "address": "2800 Kirby Dr Houston TX 77098",
      "cuisine": "Modern South Indian",
      "rating": 4.4,
      "priceRange": "$$",
      "openingHours": "09:00",
      "closingHours": "22:00",
      "latitude": 29.841301699437494,
      "longitude": -95.31102147477075,
      "phone": "(713) 522-2022",
      "description": "Modern Indian Farm-to-Table\r • Vegetarian options available"
    },
    {
      "id": "4",
      "name": "Himalaya Restaurant",
      "address": "3601 Hillcroft St Houston TX 77057",
      "cuisine": "Pakistani/South Indian",
      "rating": 4.1,
      "priceRange": "$",
      "openingHours": "11:00",
      "closingHours": "23:00",
      "latitude": 29.819178525229248,
      "longitude": -95.28889830056251,
      "phone": "(713) 532-2837",
      "description": "Halal Pakistani Cuisine\r"
    },
    {
      "id": "5",
      "name": "Shan Restaurant",
      "address": "7300 Hillcroft St Houston TX 77081",
      "cuisine": "Pakistani/Punjabi",
      "rating": 4,
      "priceRange": "$$",
      "openingHours": "11:00",
      "closingHours": "22:00",
      "latitude": 29.791301699437497,
      "longitude": -95.27469434837049,
      "phone": "(713) 988-5957",
      "description": "Authentic Pakistani Flavors\r"
    },
    {
      "id": "6",
      "name": "Indika Modern Indian",
      "address": "516 Westheimer Rd Houston TX 77006",
      "cuisine": "Modern South Indian",
      "rating": 4.5,
      "priceRange": "$$$",
      "openingHours": "17:30",
      "closingHours": "17:30",
      "latitude": 29.7604,
      "longitude": -95.2698,
      "phone": "(713) 524-2170",
      "description": "Upscale Modern Indian\r • Vegetarian options available"
    },
    {
      "id": "7",
      "name": "Pondicheri Heights",
      "address": "1834 Westheimer Rd Houston TX 77098",
      "cuisine": "Modern South Indian",
      "rating": 4.3,
      "priceRange": "$$",
      "openingHours": "09:00",
      "closingHours": "22:00",
      "latitude": 29.729498300562504,
      "longitude": -95.27469434837049,
      "phone": "(713) 275-8800",
      "description": "Health-Conscious Indian\r • Vegetarian options available"
    },
    {
      "id": "8",
      "name": "Madras Pavilion",
      "address": "3910 Kirby Dr Houston TX 77098",
      "cuisine": "Tamil/Vegetarian",
      "rating": 4.2,
      "priceRange": "$",
      "openingHours": "11:30",
      "closingHours": "22:00",
      "latitude": 29.701621474770754,
      "longitude": -95.28889830056251,
      "phone": "(713) 521-2617",
      "description": "Pure Vegetarian South Indian\r • Vegetarian options available"
    },
    {
      "id": "9",
      "name": "Udipi Cafe",
      "address": "4410 Richmond Ave Houston TX 77027",
      "cuisine": "Karnataka/Udupi",
      "rating": 4.1,
      "priceRange": "$",
      "openingHours": "11:00",
      "closingHours": "21:30",
      "latitude": 29.679498300562507,
      "longitude": -95.31102147477075,
      "phone": "(713) 622-5555",
      "description": "Traditional Udupi Vegetarian\r • Vegetarian options available"
    },
    {
      "id": "10",
      "name": "Pondicheri Downtown",
      "address": "1201 Fannin St Houston TX 77002",
      "cuisine": "Modern South Indian",
      "rating": 4.2,
      "priceRange": "$$",
      "openingHours": "09:00",
      "closingHours": "22:00",
      "latitude": 29.665294348370484,
      "longitude": -95.3388983005625,
      "phone": "(713) 275-8803",
      "description": "Downtown Location Fast-Casual\r • Vegetarian options available"
    },
    {
      "id": "11",
      "name": "Curry Boys BBQ",
      "address": "9889 Bellaire Blvd Houston TX 77036",
      "cuisine": "Indo-Pakistani",
      "rating": 4,
      "priceRange": "$$",
      "openingHours": "11:00",
      "closingHours": "22:00",
      "latitude": 29.6604,
      "longitude": -95.3698,
      "phone": "(713) 541-1905",
      "description": "BBQ Style Indian Cuisine\r"
    },
    {
      "id": "12",
      "name": "Himalaya Restaurant Westheimer",
      "address": "3334 Westheimer Rd Houston TX 77027",
      "cuisine": "Pakistani/South Indian",
      "rating": 4.1,
      "priceRange": "$",
      "openingHours": "11:00",
      "closingHours": "23:00",
      "latitude": 29.665294348370484,
      "longitude": -95.40070169943749,
      "phone": "(713) 532-4832",
      "description": "Second Location Halal\r"
    },
    {
      "id": "13",
      "name": "Pondicheri Woodlands",
      "address": "1834 Westheimer Rd Houston TX 77098",
      "cuisine": "South Indian",
      "rating": 4.3,
      "priceRange": "$$",
      "openingHours": "09:00",
      "closingHours": "22:00",
      "latitude": 29.679498300562507,
      "longitude": -95.42857852522924,
      "phone": "(713) 275-8800",
      "description": "Healthy Indian Options\r • Vegetarian options available"
    },
    {
      "id": "14",
      "name": "Shiv Sagar",
      "address": "9889 Bellaire Blvd Houston TX 77036",
      "cuisine": "Gujarati/South Indian",
      "rating": 4,
      "priceRange": "$",
      "openingHours": "11:00",
      "closingHours": "22:00",
      "latitude": 29.701621474770754,
      "longitude": -95.45070169943749,
      "phone": "(713) 270-3663",
      "description": "Gujarati Vegetarian Thali\r • Vegetarian options available"
    },
    {
      "id": "15",
      "name": "Bombay Sweets",
      "address": "5827 Hillcroft St Houston TX 77036",
      "cuisine": "North/South Indian",
      "rating": 3.9,
      "priceRange": "$",
      "openingHours": "09:00",
      "closingHours": "21:00",
      "latitude": 29.729498300562504,
      "longitude": -95.46490565162951,
      "phone": "(713) 780-4453",
      "description": "Sweets and Snacks\r • Vegetarian options available"
    },
    {
      "id": "16",
      "name": "Pondicheri Memorial",
      "address": "1834 Westheimer Rd Houston TX 77098",
      "cuisine": "Modern South Indian",
      "rating": 4.3,
      "priceRange": "$$",
      "openingHours": "09:00",
      "closingHours": "22:00",
      "latitude": 29.7604,
      "longitude": -95.46979999999999,
      "phone": "(713) 275-8800",
      "description": "Memorial Area Location\r • Vegetarian options available"
    },
    {
      "id": "17",
      "name": "Maharaja Bhog",
      "address": "8888 Westheimer Rd Houston TX 77063",
      "cuisine": "Gujarati/Rajasthani",
      "rating": 4.2,
      "priceRange": "$$",
      "openingHours": "11:30",
      "closingHours": "22:00",
      "latitude": 29.791301699437497,
      "longitude": -95.46490565162951,
      "phone": "(713) 532-5200",
      "description": "Traditional Thali Experience\r • Vegetarian options available"
    },
    {
      "id": "18",
      "name": "Pondicheri Rice Village",
      "address": "2800 Kirby Dr Houston TX 77098",
      "cuisine": "Modern South Indian",
      "rating": 4.4,
      "priceRange": "$$",
      "openingHours": "09:00",
      "closingHours": "22:00",
      "latitude": 29.819178525229248,
      "longitude": -95.45070169943749,
      "phone": "(713) 522-2022",
      "description": "Rice Village Location\r • Vegetarian options available"
    },
    {
      "id": "19",
      "name": "Curry & Kabab",
      "address": "9889 Bellaire Blvd Houston TX 77036",
      "cuisine": "Pakistani/Indian",
      "rating": 4,
      "priceRange": "$$",
      "openingHours": "11:00",
      "closingHours": "22:00",
      "latitude": 29.841301699437494,
      "longitude": -95.42857852522924,
      "phone": "(713) 541-8400",
      "description": "Pakistani Specialties\r"
    },
    {
      "id": "20",
      "name": "Himalaya Restaurant Southwest",
      "address": "10900 Southwest Fwy Houston TX 77074",
      "cuisine": "Pakistani/South Indian",
      "rating": 4.1,
      "priceRange": "$",
      "openingHours": "11:00",
      "closingHours": "23:00",
      "latitude": 29.855505651629517,
      "longitude": -95.40070169943749,
      "phone": "(713) 532-2837",
      "description": "Southwest Location"
    }
  ]
}